{"type":"FeatureCollection","features":[{"type":"Feature","geometry":{"type":"Point","coordinates":[140.7418,-34.1741]},"properties":{"city":"Renmark","admin_name":"South Australia","capital":"","population":4634}},{"type":"Feature","geometry":{"type":"Point","coordinates":[140.6,-34.2833]},"properties":{"city":"Berri","admin_name":"South Australia","capital":"","population":4088}},{"type":"Feature","geometry":{"type":"Point","coordinates":[140.5669,-34.4539]},"properties":{"city":"Loxton","admin_name":"South Australia","capital":"","population":3947}},{"type":"Feature","geometry":{"type":"Point","coordinates":[142.1881,-34.3075]},"properties":{"city":"Red Cliffs","admin_name":"Victoria","capital":"","population":3070}},{"type":"Feature","geometry":{"type":"Point","coordinates":[140.4667,-34.25]},"properties":{"city":"Barmera","admin_name":"South Australia","capital":"","population":1895}},{"type":"Feature","geometry":{"type":"Point","coordinates":[139.9833,-34.1667]},"properties":{"city":"Waikerie","admin_name":"South Australia","capital":"","population":1670}},{"type":"Feature","geometry":{"type":"Point","coordinates":[144.9631,-37.8142]},"properties":{"city":"Melbourne","admin_name":"Victoria","capital":"admin","population":5031195}},{"type":"Feature","geometry":{"type":"Point","coordinates":[151.21,-33.8678]},"properties":{"city":"Sydney","admin_name":"New South Wales","capital":"admin","population":4840600}},{"type":"Feature","geometry":{"type":"Point","coordinates":[153.0281,-27.4678]},"properties":{"city":"Brisbane","admin_name":"Queensland","capital":"admin","population":2360241}},{"type":"Feature","geometry":{"type":"Point","coordinates":[115.8606,-31.9559]},"properties":{"city":"Perth","admin_name":"Western Australia","capital":"admin","population":2141834}},{"type":"Feature","geometry":{"type":"Point","coordinates":[138.6,-34.9275]},"properties":{"city":"Adelaide","admin_name":"South Australia","capital":"admin","population":1295714}},{"type":"Feature","geometry":{"type":"Point","coordinates":[153.4,-28.0167]},"properties":{"city":"Gold Coast","admin_name":"Queensland","capital":"","population":607665}},{"type":"Feature","geometry":{"type":"Point","coordinates":[145.2834,-38.0996]},"properties":{"city":"Cranbourne","admin_name":"Victoria","capital":"","population":460491}},{"type":"Feature","geometry":{"type":"Point","coordinates":[149.1269,-35.2931]},"properties":{"city":"Canberra","admin_name":"Australian Capital Territory","capital":"primary","population":381488}},{"type":"Feature","geometry":{"type":"Point","coordinates":[151.2,-33.3]},"properties":{"city":"Central Coast","admin_name":"New South Wales","capital":"","population":346596}},{"type":"Feature","geometry":{"type":"Point","coordinates":[150.8831,-34.4331]},"properties":{"city":"Wollongong","admin_name":"New South Wales","capital":"","population":261896}},{"type":"Feature","geometry":{"type":"Point","coordinates":[152.7608,-27.6144]},"properties":{"city":"Ipswich","admin_name":"Queensland","capital":"","population":232930}},{"type":"Feature","geometry":{"type":"Point","coordinates":[147.325,-42.8806]},"properties":{"city":"Hobart","admin_name":"Tasmania","capital":"admin","population":197451}},{"type":"Feature","geometry":{"type":"Point","coordinates":[144.35,-38.15]},"properties":{"city":"Geelong","admin_name":"Victoria","capital":"","population":180239}},{"type":"Feature","geometry":{"type":"Point","coordinates":[146.8167,-19.25]},"properties":{"city":"Townsville","admin_name":"Queensland","capital":"","population":173724}},{"type":"Feature","geometry":{"type":"Point","coordinates":[151.75,-32.9167]},"properties":{"city":"Newcastle","admin_name":"New South Wales","capital":"","population":152984}},{"type":"Feature","geometry":{"type":"Point","coordinates":[145.78,-16.92]},"properties":{"city":"Cairns","admin_name":"Queensland","capital":"","population":146778}},{"type":"Feature","geometry":{"type":"Point","coordinates":[130.8411,-12.4381]},"properties":{"city":"Darwin","admin_name":"Northern Territory","capital":"admin","population":139902}},{"type":"Feature","geometry":{"type":"Point","coordinates":[143.8475,-37.5608]},"properties":{"city":"Ballarat","admin_name":"Victoria","capital":"","population":116201}},{"type":"Feature","geometry":{"type":"Point","coordinates":[151.95,-27.5667]},"properties":{"city":"Toowoomba","admin_name":"Queensland","capital":"","population":108398}},{"type":"Feature","geometry":{"type":"Point","coordinates":[144.2667,-36.75]},"properties":{"city":"Bendigo","admin_name":"Victoria","capital":"","population":103034}},{"type":"Feature","geometry":{"type":"Point","coordinates":[115.7231,-32.5289]},"properties":{"city":"Mandurah","admin_name":"Western Australia","capital":"","population":90306}},{"type":"Feature","geometry":{"type":"Point","coordinates":[147.145,-41.4419]},"properties":{"city":"Launceston","admin_name":"Tasmania","capital":"","population":80943}},{"type":"Feature","geometry":{"type":"Point","coordinates":[149.1858,-21.1411]},"properties":{"city":"Mackay","admin_name":"Queensland","capital":"","population":72900}},{"type":"Feature","geometry":{"type":"Point","coordinates":[152.84,-25.29]},"properties":{"city":"Hervey Bay","admin_name":"Queensland","capital":"","population":57722}},{"type":"Feature","geometry":{"type":"Point","coordinates":[153.0532,-26.6847]},"properties":{"city":"Buderim","admin_name":"Queensland","capital":"","population":54483}},{"type":"Feature","geometry":{"type":"Point","coordinates":[147.3689,-35.1189]},"properties":{"city":"Wagga Wagga","admin_name":"New South Wales","capital":"","population":49686}},{"type":"Feature","geometry":{"type":"Point","coordinates":[145.4878,-38.0712]},"properties":{"city":"Pakenham","admin_name":"Victoria","capital":"","population":46421}},{"type":"Feature","geometry":{"type":"Point","coordinates":[152.9,-31.4333]},"properties":{"city":"Port Macquarie","admin_name":"New South Wales","capital":"","population":44830}},{"type":"Feature","geometry":{"type":"Point","coordinates":[153.1338,-26.8047]},"properties":{"city":"Caloundra","admin_name":"Queensland","capital":"","population":41293}},{"type":"Feature","geometry":{"type":"Point","coordinates":[145.1167,-38.1333]},"properties":{"city":"Frankston","admin_name":"Victoria","capital":"","population":36097}},{"type":"Feature","geometry":{"type":"Point","coordinates":[144.7139,-37.5811]},"properties":{"city":"Sunbury","admin_name":"Victoria","capital":"","population":36084}},{"type":"Feature","geometry":{"type":"Point","coordinates":[151.2555,-23.8427]},"properties":{"city":"Gladstone","admin_name":"Queensland","capital":"","population":34703}},{"type":"Feature","geometry":{"type":"Point","coordinates":[149.5778,-33.42]},"properties":{"city":"Bathurst","admin_name":"New South Wales","capital":"","population":34303}},{"type":"Feature","geometry":{"type":"Point","coordinates":[130.9831,-12.4806]},"properties":{"city":"Palmerston","admin_name":"Northern Territory","capital":"","population":33695}},{"type":"Feature","geometry":{"type":"Point","coordinates":[153.4136,-27.9678]},"properties":{"city":"Southport","admin_name":"Queensland","capital":"","population":31908}},{"type":"Feature","geometry":{"type":"Point","coordinates":[145.215,-37.981]},"properties":{"city":"Dandenong","admin_name":"Victoria","capital":"","population":29906}},{"type":"Feature","geometry":{"type":"Point","coordinates":[142.4833,-38.3833]},"properties":{"city":"Warrnambool","admin_name":"Victoria","capital":"","population":29661}},{"type":"Feature","geometry":{"type":"Point","coordinates":[150.8778,-33.7361]},"properties":{"city":"Quakers Hill","admin_name":"New South Wales","capital":"","population":27080}},{"type":"Feature","geometry":{"type":"Point","coordinates":[140.7828,-37.8294]},"properties":{"city":"Mount Gambier","admin_name":"South Australia","capital":"","population":25591}},{"type":"Feature","geometry":{"type":"Point","coordinates":[133.87813287778891,-23.698345924226956]},"properties":{"city":"Alice Springs","admin_name":"Northern Territory","capital":"","population":24855},"id":39},{"type":"Feature","geometry":{"type":"Point","coordinates":[139.49200770410175,-20.726212412086568]},"properties":{"city":"Mount Isa","admin_name":"Queensland","capital":"","population":18317},"id":40},{"type":"Feature","geometry":{"type":"Point","coordinates":[121.47422517546426,-30.74596389623288]},"properties":{"city":"Kalgoorlie","admin_name":"Western Australia","capital":"","population":29072},"id":41},{"type":"Feature","geometry":{"type":"Point","coordinates":[141.45173130290215,-31.962916745355038]},"properties":{"city":"Broken Hill","admin_name":"New South Wales","capital":"","population":17456},"id":42},{"type":"Feature","geometry":{"type":"Point","coordinates":[137.76626337052994,-32.490453018963905]},"properties":{"city":"Port Augusta","admin_name":"South Australia","capital":"","population":12788},"id":43},{"type":"Feature","geometry":{"type":"Point","coordinates":[145.68357090392072,-28.070042248899114]},"properties":{"city":"Cunnamulla","admin_name":"Queensland","capital":"","population":1233},"id":44},{"type":"Feature","geometry":{"type":"Point","coordinates":[118.49570830878861,-26.592365311288688]},"properties":{"city":"Meekatharra","admin_name":"Western Australia","capital":"","population":675},"id":45},{"type":"Feature","geometry":{"type":"Point","coordinates":[118.57877672060977,-20.313977267426978]},"properties":{"city":"Port Hedland","admin_name":"","capital":"","population":15298},"id":46}]}